[{
    "Class": "A-list Actor",
    "InGame": [
        {
            "Name": "Alonso",
            "Region": "Unova",
            "Location": "Pokéstar Studios",
            "Pokemon": ["Smeargle"]
        },{
            "Name": "Ricardo",
            "Region": "Unova",
            "Location": "Pokéstar Studios",
            "Pokemon": ["Smeargle"]
        }
    ],
    "BattleFacility": [],
    "StadiumGames": []
},{
    "Class": "Ace Duo",
    "InGame": [
        {
            "Name": "Elina & Sean",
            "Region": "Kalos",
            "Location": "Route 21",
            "Pokemon": ["Wailmer", "Oddish"]
        },{
            "Name": "Jude & Rory",
            "Region": "Hoenn",
            "Location": "Victory Road",
            "Pokemon": ["Anorith", "Lileep"]
        },{
            "Name": "Pike & Shiel",
            "Region": "Hoenn",
            "Location": "Trick House",
            "Pokemon": ["Carvanha", "Numel"]
        },{
            "Name": "Kent & Aimee",
            "Region": "Alola",
            "Location": "Vast Poni Canyon",
            "Pokemon": ["Alolan Sandshrew", "Alolan Vulpix"]
        }
    ],
    "BattleFacility": [],
    "StadiumGames": []
},{
    "Class": "Ace Trainer",
    "InGame": [
        {
            "Name": "Aaron",
            "Region": "Johto",
            "Location": "Lake of Rage",
            "Pokemon": ["Bulbasaur", "Charmander", "Squirtle"]
        },{
            "Name": "Alexa",
            "Region": "Kanto",
            "Location": "Victory Road",
            "Pokemon": ["Cleffa", "Igglybuff", "Meowth", "Seel", "Happiny", "Dratini", "Tyrogue"]
        },{
            "Name": "Allen",
            "Region": "Johto",
            "Location": "Route 44",
            "Pokemon": ["Charmander", "Magnemite"]
        },{
            "Name": "Alton",
            "Region": "Johto",
            "Location": "Lake of Rage",
            "Pokemon": ["Bulbasaur", "Charmander", "Squirtle"]
        },{
            "Name": "Alvin",
            "Region": "Kanto",
            "Location": "Route 4",
            "Pokemon": ["Nidoran-M"]
        },{
            "Name": "Amanda",
            "Region": "Kanto",
            "Location": "Saffron Gym",
            "Pokemon": ["Smoochum"]
        },{
            "Name": "Annie",
            "Region": "Kanto",
            "Location": "Fuchsia Gym",
            "Pokemon": ["Bulbasaur", "Koffing"]
        },{
            "Name": "Arabella",
            "Region": "Kanto",
            "Location": "Viridian Gym",
            "Pokemon": ["Stantler", "Tauros"]
        },{
            "Name": "Arjun",
            "Region": "Kanto",
            "Location": "Seafoam Islands",
            "Pokemon": ["Dratini"]
        },{
            "Name": "Arnold",
            "Region": "Kanto",
            "Location": "Route 9",
            "Pokemon": ["Vulpix"]
        },{
            "Name": "Austin",
            "Region": "Kanto",
            "Location": "Route 7",
            "Pokemon": ["Growlithe"]
        },{
            "Name": "Beth",
            "Region": "Kanto",
            "Location": "Route 26",
            "Pokemon": ["Ponyta"]
        },{
            "Name": "Blake",
            "Region": "Kanto",
            "Location": "Route 27",
            "Pokemon": ["Magnemite", "Wooper", "Exeggcute"]
        },{
            "Name": "Bonita",
            "Region": "Kanto",
            "Location": "Viridian Gym",
            "Pokemon": ["Spinda", "Bonsly"]
        },{
            "Name": "Brian",
            "Region": "Kanto",
            "Location": "Route 27",
            "Pokemon": ["Sandshrew", "Mareep"]
        },{
            "Name": "Cameron",
            "Region": "Kanto",
            "Location": "Saffron Gym",
            "Pokemon": ["Abra"]
        },{
            "Name": "Cara",
            "Region": "Johto",
            "Location": "Dragon's Den",
            "Pokemon": ["Horsea"]
        },{
            "Name": "Carl",
            "Region": "Kanto",
            "Location": "Vermillion City",
            "Pokemon": ["Krabby"]
        },{
            "Name": "Carlton",
            "Region": "Kanto",
            "Location": "Route 23",
            "Pokemon": ["Nidoran-M"]
        },{
            "Name": "Carol",
            "Region": "Johto",
            "Location": "S.S. Aqua",
            "Pokemon": ["Voltorb", "Staryu", "Vulpix"]
        },{
            "Name": "Caroline",
            "Region": "Kanto",
            "Location": "Victory Road",
            "Pokemon": ["Bellsprout", "Paras", "Smoochum", "Zubat", "Growlithe"]
        },{
            "Name": "Charlie",
            "Region": "Kanto",
            "Location": "Rock Tunnel",
            "Pokemon": ["Diglett", "Eevee"]
        },{
            "Name": "Christopher",
            "Region": "Kanto",
            "Location": "Route 10",
            "Pokemon": ["Charmander"]
        },{
            "Name": "Cody",
            "Region": "Johto",
            "Location": "Blackthorn Gym",
            "Pokemon": ["Horsea"]
        },{
            "Name": "Colby",
            "Region": "Kanto",
            "Location": "Victory Road",
            "Pokemon": ["Krabby", "Poliwag", "Tentacool", "Horsea", "Squirtle", "Voltorb", "Pidgey", "Rhyhorn"]
        },{
            "Name": "Cybil",
            "Region": "Johto",
            "Location": "Route 44",
            "Pokemon": ["Caterpie", "Oddish", "Mareep"]
        },{
            "Name": "Darin",
            "Region": "Johto",
            "Location": "Dragon's Den",
            "Pokemon": ["Dratini"]
        },{
            "Name": "Dave",
            "Region": "Kanto",
            "Location": "Underground Path 7-8",
            "Pokemon": ["Nidoran-M"]
        },{
            "Name": "Dax",
            "Region": "Kanto",
            "Location": "Celadon City",
            "Pokemon": ["Eevee"]
        },{
            "Name": "Dominic",
            "Region": "Kanto",
            "Location": "Celadon City",
            "Pokemon": ["Magikarp"]
        },{
            "Name": "Edmund",
            "Region": "Kanto",
            "Location": "Route 23",
            "Pokemon": ["Charmander"]
        },{
            "Name": "Emma",
            "Region": "Johto",
            "Location": "Union Cave",
            "Pokemon": ["Poliwag"]
        },{
            "Name": "Finn",
            "Region": "Kanto",
            "Location": "Route 6",
            "Pokemon": ["Vulpix"]
        },{
            "Name": "Fred",
            "Region": "Kanto",
            "Location": "Underground Path 7-8",
            "Pokemon": ["Nidoran-F"]
        },{
            "Name": "Fran",
            "Region": "Johto",
            "Location": "Blackthorn Gym",
            "Pokemon": ["Horsea"]
        },{
            "Name": "French",
            "Region": "Kanto",
            "Location": "Route 1",
            "Pokemon": ["Absol", "Abra"]
        },{
            "Name": "Garret",
            "Region": "Kanto",
            "Location": "Saffron City",
            "Pokemon": ["Ponyta"]
        },{
            "Name": "Gaven",
            "Region": "Kanto",
            "Location": "Route 26",
            "Pokemon": ["Bellsprout", "Krabby", "Eevee"]
        },{
            "Name": "George",
            "Region": "Kanto",
            "Location": "Victory Road",
            "Pokemon": ["Exeggcute", "Sandshrew", "Shellder", "Voltorb", "Growlithe", "Scyther", "Cubone"]
        },{
            "Name": "Grayson",
            "Region": "Kanto",
            "Location": "Cerulean City",
            "Pokemon": ["Dratini"]
        },{
            "Name": "Gwen",
            "Region": "Johto",
            "Location": "Union Cave",
            "Pokemon": ["Eevee"]
        },{
            "Name": "Irene",
            "Region": "Johto",
            "Location": "Route 34",
            "Pokemon": ["Goldeen"]
        },{
            "Name": "Jace",
            "Region": "Kanto",
            "Location": "Pokémon Mansion",
            "Pokemon": ["Magby"]
        },{
            "Name": "Jake",
            "Region": "Kanto",
            "Location": "Route 26",
            "Pokemon": ["Paras", "Psyduck", "Eevee"]
        },{
            "Name": "Jamie",
            "Region": "Kanto",
            "Location": "Route 26",
            "Pokemon": ["Ponyta", "Mareep"]
        },{
            "Name": "Jaxson",
            "Region": "Kanto",
            "Location": "Fuchsia City",
            "Pokemon": ["Tauros"]
        },{
            "Name": "Jay",
            "Region": "Kanto",
            "Location": "Route 16",
            "Pokemon": ["Munchlax"]
        },{
            "Name": "Jenn",
            "Region": "Johto",
            "Location": "Route 34",
            "Pokemon": ["Staryu"]
        },{
            "Name": "Jirard",
            "Region": "Kanto",
            "Location": "Route 23",
            "Pokemon": ["Dratini"]
        },{
            "Name": "Johnson",
            "Region": "Kanto",
            "Location": "Route 17",
            "Pokemon": ["Squirtle", "Magnemite", "Cubone"]
        },{
            "Name": "Joyce",
            "Region": "Kanto",
            "Location": "Route 26",
            "Pokemon": ["Pichu", "Squirtle"]
        },{
            "Name": "Kate",
            "Region": "Johto",
            "Location": "Route 34",
            "Pokemon": ["Shellder"]
        },{
            "Name": "Kayden",
            "Region": "Kanto",
            "Location": "Fuchsia Gym",
            "Pokemon": ["Grimer", "Weedle"]
        },{
            "Name": "Kelly",
            "Region": "Johto",
            "Location": "Route 45",
            "Pokemon": ["Azurill", "Squirtle", "Nidoran-F"]
        },{
            "Name": "Kevin",
            "Region": "Kanto",
            "Location": "Route 25",
            "Pokemon": ["Rhyhorn", "Charmander", "Squirtle"]
        },{
            "Name": "Kindra",
            "Region": "Kanto",
            "Location": "Route 14",
            "Pokemon": ["Eevee", "Sandshrew", "Doduo"]
        },{
            "Name": "Kite",
            "Region": "Kanto",
            "Location": "Route 13",
            "Pokemon": ["Geodude", "Magnemite", "Gastly"]
        },{
            "Name": "Kobe",
            "Region": "Johto",
            "Location": "Dragon's Den",
            "Pokemon": ["Dratini"]
        },{
            "Name": "Kyla",
            "Region": "Kanto",
            "Location": "Route 8",
            "Pokemon": ["Abra", "Machop"]
        },{
            "Name": "Leopold",
            "Region": "Kanto",
            "Location": "Silph Co.",
            "Pokemon": ["Krabby"]
        },{
            "Name": "Leroy",
            "Region": "Kanto",
            "Location": "Sevault Canyon",
            "Pokemon": ["Rhyhorn", "Slowpoke", "Teddiursa", "Machop", "Kangaskhan"]
        },{
            "Name": "Lois",
            "Region": "Johto",
            "Location": "Lake of Rage",
            "Pokemon": ["Hoppip", "Vulpix", "Mareep"]
        },{
            "Name": "Louis",
            "Region": "Kanto",
            "Location": "Pokémon Mansion",
            "Pokemon": ["Krabby", "Mankey"]
        },{
            "Name": "Lola",
            "Region": "Johto",
            "Location": "Blackthorn Gym",
            "Pokemon": ["Dratini"]
        },{
            "Name": "Mac",
            "Region": "Kanto",
            "Location": "Fuchsia City",
            "Pokemon": ["Kangaskhan"]
        },{
            "Name": "Maria",
            "Region": "Kanto",
            "Location": "Route 17",
            "Pokemon": ["Exeggcute", "Vulpix", "Staryu"]
        },{
            "Name": "Marty",
            "Region": "Kanto",
            "Location": "Route 20",
            "Pokemon": ["Geodude", "Pinsir"]
        },{
            "Name": "Mary",
            "Region": "Kanto",
            "Location": "Celadon Gym",
            "Pokemon": ["Bellsprout", "Oddish", "Bulbasaur", "Tangela"]
        },{
            "Name": "Megan",
            "Region": "Kanto",
            "Location": "Route 27",
            "Pokemon": ["Bulbasaur"]
        },{
            "Name": "Michelle",
            "Region": "Kanto",
            "Location": "Sevault Canyon",
            "Pokemon": ["Meowth", "Seel", "Vulpix", "Ponyta", "Girafarig"]
        },{
            "Name": "Mike",
            "Region": "Johto",
            "Location": "Blackthorn Gym",
            "Pokemon": ["Dratini"]
        },{
            "Name": "Naomi",
            "Region": "Kanto",
            "Location": "Victory Road",
            "Pokemon": ["Meowth", "Ponyta", "Vulpix", "Kangaskhan", "Bulbasaur"]
        },{
            "Name": "Nick",
            "Region": "Johto",
            "Location": "Union Cave",
            "Pokemon": ["Charmander", "Bulbasaur", "Squirtle"]
        },{
            "Name": "Paul",
            "Region": "Johto",
            "Location": "Blackthorn Gym",
            "Pokemon": ["Dratini"]
        },{
            "Name": "Paulo",
            "Region": "Johto",
            "Location": "Blackthorn Gym",
            "Pokemon": ["Dratini", "Horsea"]
        },{
            "Name": "Percy",
            "Region": "Kanto",
            "Location": "Route 23",
            "Pokemon": ["Nidoran-F"]
        },{
            "Name": "Piper",
            "Region": "Johto",
            "Location": "Dragon's Den",
            "Pokemon": ["Horsea"]
        },{
            "Name": "Quinn",
            "Region": "Kanto",
            "Location": "Route 1",
            "Pokemon": ["Bulbasaur", "Staryu"]
        },{
            "Name": "Raymond",
            "Region": "Kanto",
            "Location": "Saffron City",
            "Pokemon": ["Ponyta"]
        },{
            "Name": "Reena",
            "Region": "Kanto",
            "Location": "Route 27",
            "Pokemon": ["Staryu", "Nidoran-F", "Growlithe"]
        },{
            "Name": "Rolando",
            "Region": "Kanto",
            "Location": "Victory Road",
            "Pokemon": ["Rattata", "Bulbasaur", "Squirtle", "Charmander", "Ponyta", "Staryu", "Bellsprout"]
        },{
            "Name": "Ronnie",
            "Region": "Kanto",
            "Location": "Route 3",
            "Pokemon": ["Nidoran-F"]
        },{
            "Name": "Ryan",
            "Region": "Johto",
            "Location": "Route 45",
            "Pokemon": ["Pidgey", "Elekid"]
        },{
            "Name": "Salma",
            "Region": "Kanto",
            "Location": "Viridian Gym",
            "Pokemon": ["Slowpoke", "Lickitung"]
        },{
            "Name": "Samuel",
            "Region": "Kanto",
            "Location": "Viridian Gym",
            "Pokemon": ["Sandshrew", "Rhyhorn", "Nidoran-M"]
        },{
            "Name": "Satch",
            "Region": "Kanto",
            "Location": "Celadon City",
            "Pokemon": ["Growlithe"]
        },{
            "Name": "Sean",
            "Region": "Johto",
            "Location": "S.S. Aqua",
            "Pokemon": ["Eevee", "Tangela", "Tauros"]
        },{
            "Name": "Shaye",
            "Region": "Johto",
            "Location": "S.S. Aqua",
            "Pokemon": ["Eevee", "Tangela", "Tauros"]
        },{
            "Name": "Sofia",
            "Region": "Kanto",
            "Location": "Rock Tunnel",
            "Pokemon": ["Vulpix", "Abra"]
        },{
            "Name": "Tim",
            "Region": "Kanto",
            "Location": "Celadon City",
            "Pokemon": ["Charmander"]
        },{
            "Name": "Warren",
            "Region": "Kanto",
            "Location": "Viridian Gym",
            "Pokemon": ["Cubone", "Rhyhorn", "Nidoran-F"]
        },{
            "Name": "Yuji",
            "Region": "Kanto",
            "Location": "Viridian Gym",
            "Pokemon": ["Sandshrew", "Geodude", "Onix", "Cubone", "Diglett", "Rhyhorn"]
        },{
            "Name": "Yvette",
            "Region": "Kanto",
            "Location": "Route 7",
            "Pokemon": ["Pichu", "Diglett", "Seel"]
        },{
            "Name": "Zach",
            "Region": "Kanto",
            "Location": "Route 12",
            "Pokemon": ["Tangela", "Onix"]
        },{
            "Name": "Albert",
            "Region": "Hoenn",
            "Location": "Victory Road",
            "Pokemon": ["Electrike", "Grimer", "Magnemite", "Sigilyph", "Rhyhorn"]
        },{
            "Name": "Alexa",
            "Region": "Hoenn",
            "Location": "Route 128",
            "Pokemon": ["Oddish", "Azurill"]
        },{
            "Name": "Alexia",
            "Region": "Hoenn",
            "Location": "Petalburg Gym",
            "Pokemon": ["Igglybuff"]
        },{
            "Name": "Athena",
            "Region": "Hoenn",
            "Location": "Route 127",
            "Pokemon": ["Electrike", "Zigzagoon"]
        },{
            "Name": "Benedict",
            "Region": "Hoenn",
            "Location": "Mauville City",
            "Pokemon": ["Eevee", "Heatmor"]
        },{
            "Name": "Berke",
            "Region": "Hoenn",
            "Location": "Petalburg Gym",
            "Pokemon": ["Zangoose", "Slakoth"]
        },{
            "Name": "Braxton",
            "Region": "Hoenn",
            "Location": "Route 123",
            "Pokemon": ["Taillow", "Trapinch", "Wailmer", "Magnemite", "Seedot"]
        },{
            "Name": "Brooke",
            "Region": "Hoenn",
            "Location": "Route 111",
            "Pokemon": ["Wingull", "Numel", "Budew", "Glameow", "Lapras"]
        },{
            "Name": "Carolina",
            "Region": "Hoenn",
            "Location": "Route 108",
            "Pokemon": ["Electrike", "Taillow"]
        },{
            "Name": "Caroline",
            "Region": "Hoenn",
            "Location": "Victory Road",
            "Pokemon": ["Mawile", "Sableye", "Skarmory"]
        },{
            "Name": "Claudia",
            "Region": "Hoenn",
            "Location": "Route 127",
            "Pokemon": ["Snorunt", "Surskit", "Duskull"]
        },{
            "Name": "Clyde",
            "Region": "Hoenn",
            "Location": "Route 123",
            "Pokemon": ["Taillow", "Trapinch", "Wailmer", "Magnemite", "Seedot", "Skarmory"]
        },{
            "Name": "Constance",
            "Region": "Hoenn",
            "Location": "Route 108",
            "Pokemon": ["Seviper", "Taillow"]
        },{
            "Name": "Cornelius",
            "Region": "Hoenn",
            "Location": "Route 128",
            "Pokemon": ["Geodude", "Pichu"]
        },{
            "Name": "Cristin",
            "Region": "Hoenn",
            "Location": "Route 121",
            "Pokemon": ["Whismur", "Slakoth", "Spinda"]
        },{
            "Name": "Darcy",
            "Region": "Hoenn",
            "Location": "Route 132",
            "Pokemon": ["Wingull", "Numel"]
        },{
            "Name": "Dianne",
            "Region": "Hoenn",
            "Location": "Victory Road",
            "Pokemon": ["Baltoy", "Chinchou"]
        },{
            "Name": "Edgar",
            "Region": "Hoenn",
            "Location": "Victory Road",
            "Pokemon": ["Cacnea", "Wingull", "Mawile"]
        },{
            "Name": "Elaine",
            "Region": "Hoenn",
            "Location": "Trick House",
            "Pokemon": ["Aron", "Electrike", "Tropius"]
        },{
            "Name": "Felix",
            "Region": "Hoenn",
            "Location": "Victory Road",
            "Pokemon": ["Meditite", "Baltoy"]
        },{
            "Name": "George",
            "Region": "Hoenn",
            "Location": "Petalburg Gym",
            "Pokemon": ["Zigzagoon", "Slakoth"]
        },{
            "Name": "Gerald",
            "Region": "Hoenn",
            "Location": "Lavaridge Gym",
            "Pokemon": ["Kecleon"]
        },{
            "Name": "Halle",
            "Region": "Hoenn",
            "Location": "Victory Road",
            "Pokemon": ["Sableye", "Absol"]
        },{
            "Name": "Harriet",
            "Region": "Hoenn",
            "Location": "Route 126",
            "Pokemon": ["Zubat"]
        },{
            "Name": "Hisato",
            "Region": "Hoenn",
            "Location": "Route 127",
            "Pokemon": ["Pinsir"]
        },{
            "Name": "Honor",
            "Region": "Hoenn",
            "Location": "Route 129",
            "Pokemon": ["Torkoal", "Meditite"]
        },{
            "Name": "Hope",
            "Region": "Hoenn",
            "Location": "Victory Road",
            "Pokemon": ["Budew", "Snorunt"]
        },{
            "Name": "Jazmyn",
            "Region": "Hoenn",
            "Location": "Route 123",
            "Pokemon": ["Absol"]
        },{
            "Name": "Jennifer",
            "Region": "Hoenn",
            "Location": "Route 120",
            "Pokemon": ["Feebas", "Sableye"]
        },{
            "Name": "Jody",
            "Region": "Hoenn",
            "Location": "Petalburg Gym",
            "Pokemon": ["Zangoose", "Whismur"]
        },{
            "Name": "Jonathan",
            "Region": "Hoenn",
            "Location": "Route 132",
            "Pokemon": ["Kecleon", "Whismur"]
        },{
            "Name": "Julie",
            "Region": "Hoenn",
            "Location": "Victory Road",
            "Pokemon": ["Sandshrew", "Vulpix", "Tropius", "Oddish"]
        },{
            "Name": "Katelynn",
            "Region": "Hoenn",
            "Location": "Victory Road",
            "Pokemon": ["Ralts", "Slakoth"]
        },{
            "Name": "Keira",
            "Region": "Hoenn",
            "Location": "Trick House",
            "Pokemon": ["Aron", "Electrike"]
        },{
            "Name": "Leonel",
            "Region": "Hoenn",
            "Location": "Route 120",
            "Pokemon": ["Electrike"]
        },{
            "Name": "Leopold",
            "Region": "Hoenn",
            "Location": "Route 126",
            "Pokemon": ["Trapinch", "Rhyhorn"]
        },{
            "Name": "Leroy",
            "Region": "Hoenn",
            "Location": "Trick House",
            "Pokemon": ["Mawile", "Staryu"]
        },{
            "Name": "Lori",
            "Region": "Hoenn",
            "Location": "Petalburg Gym",
            "Pokemon": ["Zigzagoon", "Absol"]
        },{
            "Name": "Marcel",
            "Region": "Hoenn",
            "Location": "Route 121",
            "Pokemon": ["Electrike", "Seedot"]
        },{
            "Name": "Marley",
            "Region": "Hoenn",
            "Location": "Route 134",
            "Pokemon": ["Electrike"]
        },{
            "Name": "Mary",
            "Region": "Hoenn",
            "Location": "Petalburg Gym",
            "Pokemon": ["Skitty", "Absol"]
        },{
            "Name": "Melba",
            "Region": "Hoenn",
            "Location": "Mauville City",
            "Pokemon": ["Nincada"]
        },{
            "Name": "Michelle",
            "Region": "Hoenn",
            "Location": "Victory Road",
            "Pokemon": ["Nosepass", "Meditite", "Lotad", "Torkoal"]
        },{
            "Name": "Mitchell",
            "Region": "Hoenn",
            "Location": "Victory Road",
            "Pokemon": ["Lunatone", "Solrock"]
        },{
            "Name": "Neville",
            "Region": "Hoenn",
            "Location": "Route 108",
            "Pokemon": ["Zangoose", "Shroomish", "Litwick"]
        },{
            "Name": "Owen",
            "Region": "Hoenn",
            "Location": "Victory Road",
            "Pokemon": ["Kecleon", "Rhyhorn", "Tentacool", "Geodude", "Wailmer"]
        },{
            "Name": "Parker",
            "Region": "Hoenn",
            "Location": "Petalburg Gym",
            "Pokemon": ["Zigzagoon", "Spinda"]
        },{
            "Name": "Portia",
            "Region": "Hoenn",
            "Location": "Route 109",
            "Pokemon": ["Kecleon", "Slugma", "Vanillite"]
        },{
            "Name": "Quincy",
            "Region": "Hoenn",
            "Location": "Victory Road",
            "Pokemon": ["Slakoth", "Duskull"]
        },{
            "Name": "Randall",
            "Region": "Hoenn",
            "Location": "Petalburg Gym",
            "Pokemon": ["Skitty", "Taillow"]
        },{
            "Name": "Ruben",
            "Region": "Hoenn",
            "Location": "Route 128",
            "Pokemon": ["Seedot", "Geodude", "Whismur", "Nosepass"]
        },{
            "Name": "Samuel",
            "Region": "Hoenn",
            "Location": "Victory Road",
            "Pokemon": ["Doduo", "Aron", "Abra", "Taillow", "Mawile"]
        },{
            "Name": "Shannon",
            "Region": "Hoenn",
            "Location": "Victory Road",
            "Pokemon": ["Baltoy"]
        },{
            "Name": "Vincent",
            "Region": "Hoenn",
            "Location": "Trick House",
            "Pokemon": ["Sableye", "Meditite", "Carvanha"]
        },{
            "Name": "Vito",
            "Region": "Hoenn",
            "Location": "Victory Road",
            "Pokemon": ["Taillow", "Abra", "Electrike", "Seedot", "Doduo", "Voltorb", "Darumaka", "Gulpin"]
        },{
            "Name": "Warren",
            "Region": "Hoenn",
            "Location": "Route 133",
            "Pokemon": ["Geodude", "Slugma", "Lotad", "Aron", "Abra", "Electrike"]
        },{
            "Name": "Wendy",
            "Region": "Hoenn",
            "Location": "Route 123",
            "Pokemon": ["Mawile", "Budew", "Wingull", "Rhyhorn", "Tropius"]
        },{
            "Name": "Wilton",
            "Region": "Hoenn",
            "Location": "Route 111",
            "Pokemon": ["Electrike", "Wailmer", "Makuhita", "Fletchling", "Axew"]
        },{
            "Name": "Zane",
            "Region": "Hoenn",
            "Location": "Lavaridge Gym",
            "Pokemon": ["Kecleon", "Slugma"]
        },{
            "Name": "Abel",
            "Region": "Sinnoh",
            "Location": "Stark Mountain",
            "Pokemon": ["Aerodactyl"]
        },{
            "Name": "",
            "Region": "",
            "Location": "",
            "Pokemon": []
        },{
            "Name": "",
            "Region": "",
            "Location": "",
            "Pokemon": []
        },{
            "Name": "",
            "Region": "",
            "Location": "",
            "Pokemon": []
        },{
            "Name": "",
            "Region": "",
            "Location": "",
            "Pokemon": []
        },{
            "Name": "",
            "Region": "",
            "Location": "",
            "Pokemon": []
        },{
            "Name": "",
            "Region": "",
            "Location": "",
            "Pokemon": []
        },{
            "Name": "",
            "Region": "",
            "Location": "",
            "Pokemon": []
        },{
            "Name": "",
            "Region": "",
            "Location": "",
            "Pokemon": []
        },{
            "Name": "",
            "Region": "",
            "Location": "",
            "Pokemon": []
        },{
            "Name": "",
            "Region": "",
            "Location": "",
            "Pokemon": []
        },{
            "Name": "",
            "Region": "",
            "Location": "",
            "Pokemon": []
        },{
            "Name": "",
            "Region": "",
            "Location": "",
            "Pokemon": []
        },{
            "Name": "",
            "Region": "",
            "Location": "",
            "Pokemon": []
        },{
            "Name": "",
            "Region": "",
            "Location": "",
            "Pokemon": []
        },{
            "Name": "",
            "Region": "",
            "Location": "",
            "Pokemon": []
        },{
            "Name": "",
            "Region": "",
            "Location": "",
            "Pokemon": []
        },{
            "Name": "",
            "Region": "",
            "Location": "",
            "Pokemon": []
        },{
            "Name": "",
            "Region": "",
            "Location": "",
            "Pokemon": []
        },{
            "Name": "",
            "Region": "",
            "Location": "",
            "Pokemon": []
        },{
            "Name": "",
            "Region": "",
            "Location": "",
            "Pokemon": []
        },{
            "Name": "",
            "Region": "",
            "Location": "",
            "Pokemon": []
        },{
            "Name": "",
            "Region": "",
            "Location": "",
            "Pokemon": []
        },{
            "Name": "",
            "Region": "",
            "Location": "",
            "Pokemon": []
        },{
            "Name": "",
            "Region": "",
            "Location": "",
            "Pokemon": []
        },{
            "Name": "",
            "Region": "",
            "Location": "",
            "Pokemon": []
        },{
            "Name": "",
            "Region": "",
            "Location": "",
            "Pokemon": []
        },{
            "Name": "",
            "Region": "",
            "Location": "",
            "Pokemon": []
        },{
            "Name": "",
            "Region": "",
            "Location": "",
            "Pokemon": []
        },{
            "Name": "",
            "Region": "",
            "Location": "",
            "Pokemon": []
        },{
            "Name": "",
            "Region": "",
            "Location": "",
            "Pokemon": []
        },{
            "Name": "",
            "Region": "",
            "Location": "",
            "Pokemon": []
        },{
            "Name": "",
            "Region": "",
            "Location": "",
            "Pokemon": []
        },{
            "Name": "",
            "Region": "",
            "Location": "",
            "Pokemon": []
        },{
            "Name": "",
            "Region": "",
            "Location": "",
            "Pokemon": []
        },{
            "Name": "",
            "Region": "",
            "Location": "",
            "Pokemon": []
        },{
            "Name": "",
            "Region": "",
            "Location": "",
            "Pokemon": []
        },{
            "Name": "",
            "Region": "",
            "Location": "",
            "Pokemon": []
        },{
            "Name": "",
            "Region": "",
            "Location": "",
            "Pokemon": []
        },{
            "Name": "",
            "Region": "",
            "Location": "",
            "Pokemon": []
        },{
            "Name": "",
            "Region": "",
            "Location": "",
            "Pokemon": []
        },{
            "Name": "",
            "Region": "",
            "Location": "",
            "Pokemon": []
        },{
            "Name": "",
            "Region": "",
            "Location": "",
            "Pokemon": []
        },{
            "Name": "",
            "Region": "",
            "Location": "",
            "Pokemon": []
        },{
            "Name": "",
            "Region": "",
            "Location": "",
            "Pokemon": []
        },{
            "Name": "",
            "Region": "",
            "Location": "",
            "Pokemon": []
        },{
            "Name": "",
            "Region": "",
            "Location": "",
            "Pokemon": []
        },{
            "Name": "",
            "Region": "",
            "Location": "",
            "Pokemon": []
        },{
            "Name": "",
            "Region": "",
            "Location": "",
            "Pokemon": []
        },{
            "Name": "",
            "Region": "",
            "Location": "",
            "Pokemon": []
        },{
            "Name": "",
            "Region": "",
            "Location": "",
            "Pokemon": []
        },{
            "Name": "",
            "Region": "",
            "Location": "",
            "Pokemon": []
        },{
            "Name": "",
            "Region": "",
            "Location": "",
            "Pokemon": []
        },{
            "Name": "",
            "Region": "",
            "Location": "",
            "Pokemon": []
        },{
            "Name": "",
            "Region": "",
            "Location": "",
            "Pokemon": []
        },{
            "Name": "",
            "Region": "",
            "Location": "",
            "Pokemon": []
        },{
            "Name": "",
            "Region": "",
            "Location": "",
            "Pokemon": []
        },{
            "Name": "",
            "Region": "",
            "Location": "",
            "Pokemon": []
        },{
            "Name": "",
            "Region": "",
            "Location": "",
            "Pokemon": []
        },{
            "Name": "",
            "Region": "",
            "Location": "",
            "Pokemon": []
        },{
            "Name": "",
            "Region": "",
            "Location": "",
            "Pokemon": []
        },{
            "Name": "",
            "Region": "",
            "Location": "",
            "Pokemon": []
        },{
            "Name": "",
            "Region": "",
            "Location": "",
            "Pokemon": []
        },{
            "Name": "",
            "Region": "",
            "Location": "",
            "Pokemon": []
        },{
            "Name": "",
            "Region": "",
            "Location": "",
            "Pokemon": []
        },{
            "Name": "",
            "Region": "",
            "Location": "",
            "Pokemon": []
        },{
            "Name": "",
            "Region": "",
            "Location": "",
            "Pokemon": []
        },{
            "Name": "",
            "Region": "",
            "Location": "",
            "Pokemon": []
        },{
            "Name": "",
            "Region": "",
            "Location": "",
            "Pokemon": []
        },{
            "Name": "",
            "Region": "",
            "Location": "",
            "Pokemon": []
        },{
            "Name": "",
            "Region": "",
            "Location": "",
            "Pokemon": []
        },{
            "Name": "",
            "Region": "",
            "Location": "",
            "Pokemon": []
        },{
            "Name": "",
            "Region": "",
            "Location": "",
            "Pokemon": []
        },{
            "Name": "",
            "Region": "",
            "Location": "",
            "Pokemon": []
        },{
            "Name": "",
            "Region": "",
            "Location": "",
            "Pokemon": []
        },{
            "Name": "",
            "Region": "",
            "Location": "",
            "Pokemon": []
        },{
            "Name": "",
            "Region": "",
            "Location": "",
            "Pokemon": []
        },{
            "Name": "",
            "Region": "",
            "Location": "",
            "Pokemon": []
        },{
            "Name": "",
            "Region": "",
            "Location": "",
            "Pokemon": []
        },{
            "Name": "",
            "Region": "",
            "Location": "",
            "Pokemon": []
        },{
            "Name": "",
            "Region": "",
            "Location": "",
            "Pokemon": []
        },{
            "Name": "",
            "Region": "",
            "Location": "",
            "Pokemon": []
        },{
            "Name": "",
            "Region": "",
            "Location": "",
            "Pokemon": []
        },{
            "Name": "",
            "Region": "",
            "Location": "",
            "Pokemon": []
        },{
            "Name": "",
            "Region": "",
            "Location": "",
            "Pokemon": []
        },{
            "Name": "",
            "Region": "",
            "Location": "",
            "Pokemon": []
        },{
            "Name": "",
            "Region": "",
            "Location": "",
            "Pokemon": []
        },{
            "Name": "",
            "Region": "",
            "Location": "",
            "Pokemon": []
        },{
            "Name": "",
            "Region": "",
            "Location": "",
            "Pokemon": []
        },{
            "Name": "",
            "Region": "",
            "Location": "",
            "Pokemon": []
        },{
            "Name": "",
            "Region": "",
            "Location": "",
            "Pokemon": []
        },{
            "Name": "",
            "Region": "",
            "Location": "",
            "Pokemon": []
        },{
            "Name": "",
            "Region": "",
            "Location": "",
            "Pokemon": []
        },{
            "Name": "",
            "Region": "",
            "Location": "",
            "Pokemon": []
        },{
            "Name": "",
            "Region": "",
            "Location": "",
            "Pokemon": []
        },{
            "Name": "",
            "Region": "",
            "Location": "",
            "Pokemon": []
        },{
            "Name": "",
            "Region": "",
            "Location": "",
            "Pokemon": []
        },{
            "Name": "",
            "Region": "",
            "Location": "",
            "Pokemon": []
        },{
            "Name": "",
            "Region": "",
            "Location": "",
            "Pokemon": []
        },{
            "Name": "",
            "Region": "",
            "Location": "",
            "Pokemon": []
        },{
            "Name": "",
            "Region": "",
            "Location": "",
            "Pokemon": []
        },{
            "Name": "",
            "Region": "",
            "Location": "",
            "Pokemon": []
        },{
            "Name": "",
            "Region": "",
            "Location": "",
            "Pokemon": []
        },{
            "Name": "",
            "Region": "",
            "Location": "",
            "Pokemon": []
        },{
            "Name": "",
            "Region": "",
            "Location": "",
            "Pokemon": []
        },{
            "Name": "",
            "Region": "",
            "Location": "",
            "Pokemon": []
        },{
            "Name": "",
            "Region": "",
            "Location": "",
            "Pokemon": []
        }
    ],
    "BattleFacility": [
        {
            "Name": "",
            "Region": "",
            "Location": "",
            "Pokemon": []
        }
    ],
    "StadiumGames": [
        {
            "Name": "",
            "Region": "",
            "Location": "",
            "Pokemon": []
        }
    ]
},{
    "Class": "Actor",
    "InGame": [
        {
            "Name": "",
            "Region": "",
            "Location": "",
            "Pokemon": []
        },{
            "Name": "",
            "Region": "",
            "Location": "",
            "Pokemon": []
        }
    ],
    "BattleFacility": [
        {
            "Name": "",
            "Region": "",
            "Location": "",
            "Pokemon": []
        }
    ],
    "StadiumGames": [
        {
            "Name": "",
            "Region": "",
            "Location": "",
            "Pokemon": []
        }
    ]
},{
    "Class": "Actress",
    "InGame": [
        {
            "Name": "",
            "Region": "",
            "Location": "",
            "Pokemon": []
        },{
            "Name": "",
            "Region": "",
            "Location": "",
            "Pokemon": []
        }
    ],
    "BattleFacility": [
        {
            "Name": "",
            "Region": "",
            "Location": "",
            "Pokemon": []
        }
    ],
    "StadiumGames": [
        {
            "Name": "",
            "Region": "",
            "Location": "",
            "Pokemon": []
        }
    ]
},{
    "Class": "Aether Foundation",
    "InGame": [
        {
            "Name": "",
            "Region": "",
            "Location": "",
            "Pokemon": []
        },{
            "Name": "",
            "Region": "",
            "Location": "",
            "Pokemon": []
        }
    ],
    "BattleFacility": [
        {
            "Name": "",
            "Region": "",
            "Location": "",
            "Pokemon": []
        }
    ],
    "StadiumGames": [
        {
            "Name": "",
            "Region": "",
            "Location": "",
            "Pokemon": []
        }
    ]
},{
    "Class": "Aether Foundation Employee",
    "InGame": [
        {
            "Name": "",
            "Region": "",
            "Location": "",
            "Pokemon": []
        },{
            "Name": "",
            "Region": "",
            "Location": "",
            "Pokemon": []
        }
    ],
    "BattleFacility": [
        {
            "Name": "",
            "Region": "",
            "Location": "",
            "Pokemon": []
        }
    ],
    "StadiumGames": [
        {
            "Name": "",
            "Region": "",
            "Location": "",
            "Pokemon": []
        }
    ]
},{
    "Class": "Aqua Admin",
    "InGame": [
        {
            "Name": "",
            "Region": "",
            "Location": "",
            "Pokemon": []
        },{
            "Name": "",
            "Region": "",
            "Location": "",
            "Pokemon": []
        }
    ],
    "BattleFacility": [
        {
            "Name": "",
            "Region": "",
            "Location": "",
            "Pokemon": []
        }
    ],
    "StadiumGames": [
        {
            "Name": "",
            "Region": "",
            "Location": "",
            "Pokemon": []
        }
    ]
},{
    "Class": "Area Leader",
    "InGame": [
        {
            "Name": "",
            "Region": "",
            "Location": "",
            "Pokemon": []
        },{
            "Name": "",
            "Region": "",
            "Location": "",
            "Pokemon": []
        }
    ],
    "BattleFacility": [
        {
            "Name": "",
            "Region": "",
            "Location": "",
            "Pokemon": []
        }
    ],
    "StadiumGames": [
        {
            "Name": "",
            "Region": "",
            "Location": "",
            "Pokemon": []
        }
    ]
},{
    "Class": "Aroma Lady",
    "InGame": [
        {
            "Name": "",
            "Region": "",
            "Location": "",
            "Pokemon": []
        },{
            "Name": "",
            "Region": "",
            "Location": "",
            "Pokemon": []
        }
    ],
    "BattleFacility": [
        {
            "Name": "",
            "Region": "",
            "Location": "",
            "Pokemon": []
        }
    ],
    "StadiumGames": [
        {
            "Name": "",
            "Region": "",
            "Location": "",
            "Pokemon": []
        }
    ]
},{
    "Class": "Artist",
    "InGame": [
        {
            "Name": "",
            "Region": "",
            "Location": "",
            "Pokemon": []
        },{
            "Name": "",
            "Region": "",
            "Location": "",
            "Pokemon": []
        }
    ],
    "BattleFacility": [
        {
            "Name": "",
            "Region": "",
            "Location": "",
            "Pokemon": []
        }
    ],
    "StadiumGames": [
        {
            "Name": "",
            "Region": "",
            "Location": "",
            "Pokemon": []
        }
    ]
},{
    "Class": "Artist Family",
    "InGame": [
        {
            "Name": "",
            "Region": "",
            "Location": "",
            "Pokemon": []
        },{
            "Name": "",
            "Region": "",
            "Location": "",
            "Pokemon": []
        }
    ],
    "BattleFacility": [
        {
            "Name": "",
            "Region": "",
            "Location": "",
            "Pokemon": []
        }
    ],
    "StadiumGames": [
        {
            "Name": "",
            "Region": "",
            "Location": "",
            "Pokemon": []
        }
    ]
},{
    "Class": "Athlete",
    "InGame": [
        {
            "Name": "",
            "Region": "",
            "Location": "",
            "Pokemon": []
        },{
            "Name": "",
            "Region": "",
            "Location": "",
            "Pokemon": []
        }
    ],
    "BattleFacility": [
        {
            "Name": "",
            "Region": "",
            "Location": "",
            "Pokemon": []
        }
    ],
    "StadiumGames": [
        {
            "Name": "",
            "Region": "",
            "Location": "",
            "Pokemon": []
        }
    ]
},{
    "Class": "Athletic Siblings",
    "InGame": [
        {
            "Name": "",
            "Region": "",
            "Location": "",
            "Pokemon": []
        },{
            "Name": "",
            "Region": "",
            "Location": "",
            "Pokemon": []
        }
    ],
    "BattleFacility": [
        {
            "Name": "",
            "Region": "",
            "Location": "",
            "Pokemon": []
        }
    ],
    "StadiumGames": [
        {
            "Name": "",
            "Region": "",
            "Location": "",
            "Pokemon": []
        }
    ]
},{
    "Class": "Backers",
    "InGame": [
        {
            "Name": "",
            "Region": "",
            "Location": "",
            "Pokemon": []
        },{
            "Name": "",
            "Region": "",
            "Location": "",
            "Pokemon": []
        }
    ],
    "BattleFacility": [
        {
            "Name": "",
            "Region": "",
            "Location": "",
            "Pokemon": []
        }
    ],
    "StadiumGames": [
        {
            "Name": "",
            "Region": "",
            "Location": "",
            "Pokemon": []
        }
    ]
},{
    "Class": "Backpacker",
    "InGame": [
        {
            "Name": "",
            "Region": "",
            "Location": "",
            "Pokemon": []
        },{
            "Name": "",
            "Region": "",
            "Location": "",
            "Pokemon": []
        }
    ],
    "BattleFacility": [
        {
            "Name": "",
            "Region": "",
            "Location": "",
            "Pokemon": []
        }
    ],
    "StadiumGames": [
        {
            "Name": "",
            "Region": "",
            "Location": "",
            "Pokemon": []
        }
    ]
},{
    "Class": "Baker",
    "InGame": [
        {
            "Name": "",
            "Region": "",
            "Location": "",
            "Pokemon": []
        },{
            "Name": "",
            "Region": "",
            "Location": "",
            "Pokemon": []
        }
    ],
    "BattleFacility": [
        {
            "Name": "",
            "Region": "",
            "Location": "",
            "Pokemon": []
        }
    ],
    "StadiumGames": [
        {
            "Name": "",
            "Region": "",
            "Location": "",
            "Pokemon": []
        }
    ]
},{
    "Class": "Bandana Guy",
    "InGame": [
        {
            "Name": "",
            "Region": "",
            "Location": "",
            "Pokemon": []
        },{
            "Name": "",
            "Region": "",
            "Location": "",
            "Pokemon": []
        }
    ],
    "BattleFacility": [
        {
            "Name": "",
            "Region": "",
            "Location": "",
            "Pokemon": []
        }
    ],
    "StadiumGames": [
        {
            "Name": "",
            "Region": "",
            "Location": "",
            "Pokemon": []
        }
    ]
},{
    "Class": "Bandit",
    "InGame": [
        {
            "Name": "",
            "Region": "",
            "Location": "",
            "Pokemon": []
        },{
            "Name": "",
            "Region": "",
            "Location": "",
            "Pokemon": []
        }
    ],
    "BattleFacility": [
        {
            "Name": "",
            "Region": "",
            "Location": "",
            "Pokemon": []
        }
    ],
    "StadiumGames": [
        {
            "Name": "",
            "Region": "",
            "Location": "",
            "Pokemon": []
        }
    ]
},{
    "Class": "Baron",
    "InGame": [
        {
            "Name": "",
            "Region": "",
            "Location": "",
            "Pokemon": []
        },{
            "Name": "",
            "Region": "",
            "Location": "",
            "Pokemon": []
        }
    ],
    "BattleFacility": [
        {
            "Name": "",
            "Region": "",
            "Location": "",
            "Pokemon": []
        }
    ],
    "StadiumGames": [
        {
            "Name": "",
            "Region": "",
            "Location": "",
            "Pokemon": []
        }
    ]
},{
    "Class": "Baroness",
    "InGame": [
        {
            "Name": "",
            "Region": "",
            "Location": "",
            "Pokemon": []
        },{
            "Name": "",
            "Region": "",
            "Location": "",
            "Pokemon": []
        }
    ],
    "BattleFacility": [
        {
            "Name": "",
            "Region": "",
            "Location": "",
            "Pokemon": []
        }
    ],
    "StadiumGames": [
        {
            "Name": "",
            "Region": "",
            "Location": "",
            "Pokemon": []
        }
    ]
},{
    "Class": "Battle Chatelaine",
    "InGame": [
        {
            "Name": "",
            "Region": "",
            "Location": "",
            "Pokemon": []
        },{
            "Name": "",
            "Region": "",
            "Location": "",
            "Pokemon": []
        }
    ],
    "BattleFacility": [
        {
            "Name": "",
            "Region": "",
            "Location": "",
            "Pokemon": []
        }
    ],
    "StadiumGames": [
        {
            "Name": "",
            "Region": "",
            "Location": "",
            "Pokemon": []
        }
    ]
},{
    "Class": "Battle Girl",
    "InGame": [
        {
            "Name": "",
            "Region": "",
            "Location": "",
            "Pokemon": []
        },{
            "Name": "",
            "Region": "",
            "Location": "",
            "Pokemon": []
        }
    ],
    "BattleFacility": [
        {
            "Name": "",
            "Region": "",
            "Location": "",
            "Pokemon": []
        }
    ],
    "StadiumGames": [
        {
            "Name": "",
            "Region": "",
            "Location": "",
            "Pokemon": []
        }
    ]
},{
    "Class": "Battle Legend",
    "InGame": [
        {
            "Name": "",
            "Region": "",
            "Location": "",
            "Pokemon": []
        },{
            "Name": "",
            "Region": "",
            "Location": "",
            "Pokemon": []
        }
    ],
    "BattleFacility": [
        {
            "Name": "",
            "Region": "",
            "Location": "",
            "Pokemon": []
        }
    ],
    "StadiumGames": [
        {
            "Name": "",
            "Region": "",
            "Location": "",
            "Pokemon": []
        }
    ]
},{
    "Class": "Beauty",
    "InGame": [
        {
            "Name": "",
            "Region": "",
            "Location": "",
            "Pokemon": []
        },{
            "Name": "",
            "Region": "",
            "Location": "",
            "Pokemon": []
        }
    ],
    "BattleFacility": [
        {
            "Name": "",
            "Region": "",
            "Location": "",
            "Pokemon": []
        }
    ],
    "StadiumGames": [
        {
            "Name": "",
            "Region": "",
            "Location": "",
            "Pokemon": []
        }
    ]
},{
    "Class": "Bellhop",
    "InGame": [
        {
            "Name": "Jody",
            "Region": "Alola",
            "Location": "Route 4",
            "Pokemon": ["Drifloon", "Fomantis"]
        }
    ],
    "BattleFacility": [
        {
            "Name": "Dyson",
            "Region": "Alola",
            "Location": "Battle Tree",
            "Pokemon": ["Hawlucha", "Skiddo", "Wimpod", "Grubbin", "Mudbray", "Stufful", "Rotom", "Binacle", "Elekid", "Dewpider", "Treecko", "Turtwig", "Meditite", "Shroomish", "Sawk", "Throh", 
                        "Lotad", "Seedot", "Tauros", "Abra", "Shieldon", "Pinsir", "Scyther", "Heracross", "Teddiursa", "Wailmer", "Machop", "Timburr", "Riolu", "Duskull", "Cubchoo", "Bouffalant", 
                        "Archen", "Dratini", "Makuhita", "Wingull", "Buneary", "Munna", "Scraggy", "Ferroseed", "Slowpoke", "Swablu", "Croagunk", "Gothita", "Pawniard", "Snover", "Anorith", 
                        "Cranidos", "Mareep", "Poliwag", "Passimian", "Bronzor", "Skorupi", "Crabrawler", "Shuckle", "Mimikyu", "Murkrow", "Roggenrola", "Drilbur", "Zorua", "Ralts", "Swinub", "Lapras"]
        },{
            "Name": "Chip",
            "Region": "Alola",
            "Location": "Battle Tree",
            "Pokemon": []
        },{
            "Name": "Zero",
            "Region": "Alola",
            "Location": "Battle Tree",
            "Pokemon": []
        },{
            "Name": "Donna",
            "Region": "Alola",
            "Location": "Battle Tree",
            "Pokemon": []
        },{
            "Name": "Gilroy",
            "Region": "Alola",
            "Location": "Battle Tree",
            "Pokemon": []
        }
    ],
    "StadiumGames": []
},{
    "Class": "",
    "InGame": [
        {
            "Name": "",
            "Region": "",
            "Location": "",
            "Pokemon": []
        },{
            "Name": "",
            "Region": "",
            "Location": "",
            "Pokemon": []
        }
    ],
    "BattleFacility": [
        {
            "Name": "",
            "Region": "",
            "Location": "",
            "Pokemon": []
        }
    ],
    "StadiumGames": [
        {
            "Name": "",
            "Region": "",
            "Location": "",
            "Pokemon": []
        }
    ]
},{
    "Class": "",
    "InGame": [
        {
            "Name": "",
            "Region": "",
            "Location": "",
            "Pokemon": []
        },{
            "Name": "",
            "Region": "",
            "Location": "",
            "Pokemon": []
        }
    ],
    "BattleFacility": [
        {
            "Name": "",
            "Region": "",
            "Location": "",
            "Pokemon": []
        }
    ],
    "StadiumGames": [
        {
            "Name": "",
            "Region": "",
            "Location": "",
            "Pokemon": []
        }
    ]
},{
    "Class": "",
    "InGame": [
        {
            "Name": "",
            "Region": "",
            "Location": "",
            "Pokemon": []
        },{
            "Name": "",
            "Region": "",
            "Location": "",
            "Pokemon": []
        }
    ],
    "BattleFacility": [
        {
            "Name": "",
            "Region": "",
            "Location": "",
            "Pokemon": []
        }
    ],
    "StadiumGames": [
        {
            "Name": "",
            "Region": "",
            "Location": "",
            "Pokemon": []
        }
    ]
},{
    "Class": "",
    "InGame": [
        {
            "Name": "",
            "Region": "",
            "Location": "",
            "Pokemon": []
        },{
            "Name": "",
            "Region": "",
            "Location": "",
            "Pokemon": []
        }
    ],
    "BattleFacility": [
        {
            "Name": "",
            "Region": "",
            "Location": "",
            "Pokemon": []
        }
    ],
    "StadiumGames": [
        {
            "Name": "",
            "Region": "",
            "Location": "",
            "Pokemon": []
        }
    ]
}
]